{
"type": "FeatureCollection",
"name": "zj_pn",
"features": [

{ "type": "Feature", "properties": { "fcode": "3101040106", "name": "温州市", "pncode": "2213", "gnid": "330302025000", "city": "温州市", "county": "鹿城区", "town": "南汇街道", "entiid": null }, "geometry": { "type": "Point", "coordinates": [ 120.69529487600005, 27.996596397000019 ] } },
{ "type": "Feature", "properties": { "fcode": "3101040106", "name": "丽水市", "pncode": "2213", "gnid": "331102002000", "city": "丽水市", "county": "莲都区", "town": "岩泉街道", "entiid": null }, "geometry": { "type": "Point", "coordinates": [ 119.918146675, 28.471064784000021 ] } },
{ "type": "Feature", "properties": { "fcode": "3101040106", "name": "台州市", "pncode": "2213", "gnid": "331002002000", "city": "台州市", "county": "椒江区", "town": "白云街道", "entiid": null }, "geometry": { "type": "Point", "coordinates": [ 121.42517295799996, 28.657007736000025 ] } },
{ "type": "Feature", "properties": { "fcode": "3101040106", "name": "衢州市", "pncode": "2213", "gnid": "330802009000", "city": "衢州市", "county": "柯城区", "town": "白云街道", "entiid": null }, "geometry": { "type": "Point", "coordinates": [ 118.85451225700001, 28.973640255000021 ] } },
{ "type": "Feature", "properties": { "fcode": "3101040106", "name": "金华市", "pncode": "2213", "gnid": "330702007000", "city": "金华市", "county": "婺城区", "town": "西关街道", "entiid": null }, "geometry": { "type": "Point", "coordinates": [ 119.64669877899996, 29.071708230000013 ] } },
{ "type": "Feature", "properties": { "fcode": "3101040106", "name": "宁波市", "pncode": "2213", "gnid": "330203005000", "city": "宁波市", "county": "海曙区", "town": "鼓楼街道", "entiid": null }, "geometry": { "type": "Point", "coordinates": [ 121.539076486, 29.880174893 ] } },
{ "type": "Feature", "properties": { "fcode": "3101040106", "name": "舟山市", "pncode": "2213", "gnid": "330902011000", "city": "舟山市", "county": "定海区", "town": "千岛街道", "entiid": null }, "geometry": { "type": "Point", "coordinates": [ 122.20329855700004, 29.988235798 ] } },
{ "type": "Feature", "properties": { "fcode": "3101040106", "name": "绍兴市", "pncode": "2213", "gnid": "330602101000", "city": "绍兴市", "county": "越城区", "town": "灵芝街道", "entiid": null }, "geometry": { "type": "Point", "coordinates": [ 120.57629141300004, 30.032901604000017 ] } },
{ "type": "Feature", "properties": { "fcode": "3101040106", "name": "杭州市", "pncode": "2213", "gnid": "330104008000", "city": "杭州市", "county": "江干区", "town": "四季青街道", "entiid": null }, "geometry": { "type": "Point", "coordinates": [ 120.20486605500002, 30.248331791999988 ] } },
{ "type": "Feature", "properties": { "fcode": "3101040106", "name": "嘉兴市", "pncode": "2213", "gnid": "330402010000", "city": "嘉兴市", "county": "南湖区", "town": "南湖街道", "entiid": null }, "geometry": { "type": "Point", "coordinates": [ 120.75665953199996, 30.742531401 ] } },
{ "type": "Feature", "properties": { "fcode": "3101040106", "name": "湖州市", "pncode": "2213", "gnid": "330502006000", "city": "湖州市", "county": "吴兴区", "town": "凤凰街道", "entiid": null }, "geometry": { "type": "Point", "coordinates": [ 120.09276287900002, 30.886175298000012 ] } },
{ "type": "Feature", "properties": { "fcode": "3112060106", "name": "上村", "pncode": "2900", "gnid": "330185007000", "city": "杭州市", "county": "临安区", "town": "锦北街道", "entiid": null }, "geometry": { "type": "Point", "coordinates": [ 119.73215181099999, 30.281059777 ] } },
{ "type": "Feature", "properties": { "fcode": "3101080106", "name": "双枧头", "pncode": "2220", "gnid": "330702209000", "city": "金华市", "county": "婺城区", "town": "苏孟乡", "entiid": null }, "geometry": { "type": "Point", "coordinates": [ 119.63363019500002, 29.000878417000024 ] } },
{ "type": "Feature", "properties": { "fcode": "3101060106", "name": "新林乡", "pncode": "2215", "gnid": "330624001000", "city": "绍兴市", "county": "新昌县", "town": "羽林街道", "entiid": null }, "geometry": { "type": "Point", "coordinates": [ 120.99983660099997, 29.516670767999983 ] } },
{ "type": "Feature", "properties": { "fcode": "3111050106", "name": "里南乡政府", "pncode": "2215", "gnid": "330683201000", "city": "绍兴市", "county": "嵊州市", "town": "里南乡", "entiid": null }, "geometry": { "type": "Point", "coordinates": [ 120.68759651000005, 29.44649358800001 ] } },
{ "type": "Feature", "properties": { "fcode": "3111050106", "name": "东湖街道办事处", "pncode": "2215", "gnid": "330110102000", "city": "杭州市", "county": "余杭区", "town": "塘栖镇", "entiid": null }, "geometry": { "type": "Point", "coordinates": [ 120.25318468600005, 30.474429301999976 ] } },
{ "type": "Feature", "properties": { "fcode": "3111050106", "name": "云山街道办事处", "pncode": "2215", "gnid": "330781002000", "city": "金华市", "county": "兰溪市", "town": "云山街道", "entiid": null }, "geometry": { "type": "Point", "coordinates": [ 119.47977830399998, 29.244288359999985 ] } },
{ "type": "Feature", "properties": { "fcode": "3111050106", "name": "赤溪街道办事处", "pncode": "2215", "gnid": "330781005000", "city": "金华市", "county": "兰溪市", "town": "赤溪街道", "entiid": null }, "geometry": { "type": "Point", "coordinates": [ 119.39284544099996, 29.196094742000014 ] } },
{ "type": "Feature", "properties": { "fcode": "3111050106", "name": "龙洲街道办事处", "pncode": "2215", "gnid": "330825001000", "city": "衢州市", "county": "龙游县", "town": "龙洲街道", "entiid": null }, "geometry": { "type": "Point", "coordinates": [ 119.14813359899995, 29.02159968699999 ] } },
{ "type": "Feature", "properties": { "fcode": "3111050106", "name": "铜铃山镇政府", "pncode": "2215", "gnid": "330328304000", "city": "温州市", "county": "文成县", "town": "铜铃山镇", "entiid": null }, "geometry": { "type": "Point", "coordinates": [ 119.82725846699998, 27.86640860599999 ] } },
{ "type": "Feature", "properties": { "fcode": "3111050106", "name": "万阜乡政府", "pncode": "2215", "gnid": "331121211000", "city": "丽水市", "county": "青田县", "town": "万阜乡", "entiid": null }, "geometry": { "type": "Point", "coordinates": [ 120.02159255900006, 27.96259132099999 ] } },
{ "type": "Feature", "properties": { "fcode": "3111050106", "name": "盐盆街道办事处", "pncode": "2215", "gnid": "330382004000", "city": "温州市", "county": "乐清市", "town": "盐盆街道", "entiid": null }, "geometry": { "type": "Point", "coordinates": [ 120.98605695399999, 28.069755536 ] } },
{ "type": "Feature", "properties": { "fcode": "3111050106", "name": "滨江街道办事处", "pncode": "2215", "gnid": "330302030000", "city": "温州市", "county": "鹿城区", "town": "蒲鞋市街道", "entiid": null }, "geometry": { "type": "Point", "coordinates": [ 120.68735918899995, 28.00753763900002 ] } },
{ "type": "Feature", "properties": { "fcode": "3111050106", "name": "祯埠乡政府", "pncode": "2215", "gnid": "331121207000", "city": "丽水市", "county": "青田县", "town": "祯埠乡", "entiid": null }, "geometry": { "type": "Point", "coordinates": [ 120.01696596399995, 28.31462495 ] } },
{ "type": "Feature", "properties": { "fcode": "3111050106", "name": "螺洋街道办事处", "pncode": "2215", "gnid": "331004004000", "city": "台州市", "county": "路桥区", "town": "螺洋街道", "entiid": null }, "geometry": { "type": "Point", "coordinates": [ 121.32524747100001, 28.561053915 ] } },
{ "type": "Feature", "properties": { "fcode": "3112060106", "name": "牛坞垄", "pncode": "2900", "gnid": "330122109000", "city": "杭州市", "county": "桐庐县", "town": "分水镇", "entiid": null }, "geometry": { "type": "Point", "coordinates": [ 119.45910766099996, 29.91293753399998 ] } },
{ "type": "Feature", "properties": { "fcode": "3112060106", "name": "潘家坞", "pncode": "2900", "gnid": "330127100000", "city": "杭州市", "county": "淳安县", "town": "千岛湖镇", "entiid": null }, "geometry": { "type": "Point", "coordinates": [ 119.11074703400004, 29.654582173999984 ] } },
{ "type": "Feature", "properties": { "fcode": "3112060106", "name": "岙头", "pncode": "2900", "gnid": "330127110000", "city": "杭州市", "county": "淳安县", "town": "大墅镇", "entiid": null }, "geometry": { "type": "Point", "coordinates": [ 118.76961303300004, 29.366154559 ] } },
{ "type": "Feature", "properties": { "fcode": "3112060106", "name": "九工段", "pncode": "2900", "gnid": "330109010000", "city": "杭州市", "county": "萧山区", "town": "临江街道", "entiid": null }, "geometry": { "type": "Point", "coordinates": [ 120.58321477499999, 30.354053313 ] } },
{ "type": "Feature", "properties": { "fcode": "3112060106", "name": "永青林场", "pncode": "2900", "gnid": "331126105000", "city": "丽水市", "county": "庆元县", "town": "左溪镇", "entiid": null }, "geometry": { "type": "Point", "coordinates": [ 119.35869807400002, 27.54122533899999 ] } },
{ "type": "Feature", "properties": { "fcode": "3101092106", "name": "青田县大垟山林场", "pncode": "2242", "gnid": "331121103000", "city": "丽水市", "county": "青田县", "town": "高湖镇", "entiid": null }, "geometry": { "type": "Point", "coordinates": [ 120.21513692099995, 28.374209055999984 ] } },
{ "type": "Feature", "properties": { "fcode": "3101092106", "name": "青田县大垟山林场大月岙林区", "pncode": "2242", "gnid": "331121103000", "city": "丽水市", "county": "青田县", "town": "高湖镇", "entiid": null }, "geometry": { "type": "Point", "coordinates": [ 120.26104162599995, 28.424237850999987 ] } },
{ "type": "Feature", "properties": { "fcode": "3303000106", "name": "宁波鄞州郭斌养鲤场", "pncode": "2740", "gnid": "330203105000", "city": "宁波市", "county": "海曙区", "town": "鄞江镇", "entiid": null }, "geometry": { "type": "Point", "coordinates": [ 121.33733057200004, 29.750348179000014 ] } },
{ "type": "Feature", "properties": { "fcode": "3112060106", "name": "后湾", "pncode": "2900", "gnid": "330203108000", "city": "宁波市", "county": "海曙区", "town": "章水镇", "entiid": null }, "geometry": { "type": "Point", "coordinates": [ 121.14639930800001, 29.749130245 ] } },
{ "type": "Feature", "properties": { "fcode": "3111060106", "name": "茜墩村委会", "pncode": "2216", "gnid": "330421103000", "city": "嘉兴市", "county": "嘉善县", "town": "西塘镇", "entiid": null }, "geometry": { "type": "Point", "coordinates": [ 120.90375263600004, 30.99009337699999 ] } },
{ "type": "Feature", "properties": { "fcode": "3111060106", "name": "蒋杨村委会", "pncode": "2216", "gnid": "330185008000", "city": "杭州市", "county": "临安区", "town": "青山湖街道", "entiid": null }, "geometry": { "type": "Point", "coordinates": [ 119.81811930499998, 30.249400583000011 ] } },
{ "type": "Feature", "properties": { "fcode": "3303000106", "name": "杭州余杭区仁和镇杭勇水产养殖场", "pncode": "2740", "gnid": "330110009000", "city": "杭州市", "county": "余杭区", "town": "仁和街道", "entiid": null }, "geometry": { "type": "Point", "coordinates": [ 120.06484338099995, 30.492759130000024 ] } }
]
}
